{"executionTime":"2013-08-19 12:03:01 AM","stationBeanList":[{"id":5,"stationName":"State St & Harrison St","availableDocks":6,"totalDocks":19,"latitude":41.8739580629,"longitude":-87.6277394859,"statusValue":"In Service","statusKey":1,"availableBikes":13,"stAddress1":"State St & Harrison St","stAddress2":"","city":"","postalCode":"","location":"620 S. State St.","altitude":"","testStation":false,"lastCommunicationTime":null,"landMark":"030"},{"id":13,"stationName":"Wilton Ave & Diversey Pkwy","availableDocks":13,"totalDocks":19,"latitude":41.93250008,"longitude":-87.65268082,"statusValue":"In Service","statusKey":1,"availableBikes":6,"stAddress1":"Wilton Ave & Diversey Pkwy","stAddress2":"","city":"Chicago","postalCode":"","location":"2790 N.Wilton Ave","altitude":"","testStation":false,"lastCommunicationTime":null,"landMark":"066"},{"id":14,"stationName":"Morgan St & 18th St","availableDocks":6,"totalDocks":15,"latitude":41.858086,"longitude":-87.651073,"statusValue":"In Service","statusKey":1,"availableBikes":9,"stAddress1":"Morgan St & 18th St","stAddress2":"","city":"Chicago","postalCode":"","location":"962 W. 18th St","altitude":"","testStation":false,"lastCommunicationTime":null,"landMark":"163"},{"id":15,"stationName":"Racine Ave & 18th St","availableDocks":7,"totalDocks":15,"latitude":41.8581806068,"longitude":-87.6564866473,"statusValue":"In Service","statusKey":1,"availableBikes":8,"stAddress1":"Racine Ave & 18th St","stAddress2":"","city":"Chicago","postalCode":"","location":"1722 S Racine Ave","altitude":"","testStation":false,"lastCommunicationTime":null,"landMark":"164"},{"id":16,"stationName":"Wood St & North Ave","availableDocks":4,"totalDocks":15,"latitude":41.910329,"longitude":-87.672516,"statusValue":"In Service","statusKey":1,"availableBikes":11,"stAddress1":"Wood St & North Ave","stAddress2":"","city":"","postalCode":"","location":"1553 N Wood St","altitude":"","testStation":false,"lastCommunicationTime":null,"landMark":"223"},{"id":17,"stationName":"Wood St & Division St","availableDocks":5,"totalDocks":15,"latitude":41.90332,"longitude":-87.67273,"statusValue":"In Service","statusKey":1,"availableBikes":10,"stAddress1":"Wood St & Division St","stAddress2":"","city":"","postalCode":"","location":"1802 W. Divison St","altitude":"","testStation":false,"lastCommunicationTime":null,"landMark":"246"},{"id":19,"stationName":"Loomis St & Taylor St","availableDocks":10,"totalDocks":15,"latitude":41.8691438562,"longitude":-87.6617216772,"statusValue":"In Service","statusKey":1,"availableBikes":5,"stAddress1":"Loomis St & Taylor St","stAddress2":"","city":"Chicago","postalCode":"","location":"1010 S. Loomis St","altitude":"","testStation":false,"lastCommunicationTime":null,"landMark":"139"},{"id":20,"stationName":"Sheffield Ave & Kingsbury St","availableDocks":6,"totalDocks":15,"latitude":41.90959193,"longitude":-87.65349723,"statusValue":"In Service","statusKey":1,"availableBikes":9,"stAddress1":"Sheffield Ave & Kingsbury St","stAddress2":"","city":"Chicago","postalCode":"","location":"1009 W. Weed st","altitude":"","testStation":false,"lastCommunicationTime":null,"landMark":"154"},{"id":21,"stationName":"Aberdeen St & Jackson Blvd","availableDocks":6,"totalDocks":15,"latitude":41.87772613,"longitude":-87.65478743,"statusValue":"In Service","statusKey":1,"availableBikes":9,"stAddress1":"Aberdeen St & Jackson Blvd","stAddress2":"","city":"Chicago","postalCode":"","location":"1103 W.Jackson Blvd","altitude":"","testStation":false,"lastCommunicationTime":null,"landMark":"157"},{"id":22,"stationName":"May St & Taylor St","availableDocks":9,"totalDocks":15,"latitude":41.8694821,"longitude":-87.6554864,"statusValue":"In Service","statusKey":1,"availableBikes":6,"stAddress1":"May St & Taylor St","stAddress2":"","city":"","postalCode":"","location":"1134 W. Taylor St","altitude":"","testStation":false,"lastCommunicationTime":null,"landMark":"160"},{"id":23,"stationName":"Orleans St & Elm St","availableDocks":5,"totalDocks":15,"latitude":41.902924,"longitude":-87.637715,"statusValue":"In Service","statusKey":1,"availableBikes":10,"stAddress1":"Orleans St & Elm St","stAddress2":"","city":"","postalCode":"","location":"350 W. Elm st","altitude":"","testStation":false,"lastCommunicationTime":null,"landMark":"172"},{"id":24,"stationName":"Fairbanks Ct & Grand Ave","availableDocks":5,"totalDocks":15,"latitude":41.89186,"longitude":-87.62062,"statusValue":"In Service","statusKey":1,"availableBikes":10,"stAddress1":"Fairbanks Ct & Grand Ave","stAddress2":"","city":"","postalCode":"","location":"240 E.Grand Ave.","altitude":"","testStation":false,"lastCommunicationTime":null,"landMark":"262"},{"id":25,"stationName":"Michigan Ave & Pearson St","availableDocks":11,"totalDocks":23,"latitude":41.89766,"longitude":-87.62351,"statusValue":"In Service","statusKey":1,"availableBikes":12,"stAddress1":"Michigan Ave & Pearson st","stAddress2":"","city":"","postalCode":"","location":"150 E.Pearson st","altitude":"","testStation":false,"lastCommunicationTime":null,"landMark":"034"},{"id":26,"stationName":"McClurg Ct & Illinois St","availableDocks":22,"totalDocks":23,"latitude":41.89102,"longitude":-87.6173,"statusValue":"In Service","statusKey":1,"availableBikes":1,"stAddress1":"McClurg Ct & Illinois St","stAddress2":"","city":"","postalCode":"","location":"","altitude":"","testStation":false,"lastCommunicationTime":null,"landMark":"051"},{"id":27,"stationName":"Larrabee St & North Ave","availableDocks":10,"totalDocks":19,"latitude":41.91021,"longitude":-87.6435,"statusValue":"In Service","statusKey":1,"availableBikes":9,"stAddress1":"Larrabee St & North Ave","stAddress2":"","city":"","postalCode":"","location":"1530 N.Larrabee st","altitude":"","testStation":false,"lastCommunicationTime":null,"landMark":"174"},{"id":28,"stationName":"Larrabee St & Menomonee St","availableDocks":8,"totalDocks":15,"latitude":41.91468,"longitude":-87.64332,"statusValue":"In Service","statusKey":1,"availableBikes":7,"stAddress1":"Larrabee St & Menomonee St","stAddress2":"","city":"","postalCode":"","location":"590 W. Menomonee","altitude":"","testStation":false,"lastCommunicationTime":null,"landMark":"282"},{"id":29,"stationName":"Noble St & Milwaukee Ave","availableDocks":8,"totalDocks":15,"latitude":41.90068,"longitude":-87.6626,"statusValue":"In Service","statusKey":1,"availableBikes":7,"stAddress1":"Noble St & Milwaukee Ave","stAddress2":"","city":"","postalCode":"","location":"1016 N. Noble st","altitude":"","testStation":false,"lastCommunicationTime":null,"landMark":"290"},{"id":30,"stationName":"Ashland Ave & Augusta Blvd","availableDocks":5,"totalDocks":15,"latitude":41.899643,"longitude":-87.6677,"statusValue":"In Service","statusKey":1,"availableBikes":10,"stAddress1":"Ashland Ave & Augusta Blvd","stAddress2":"","city":"","postalCode":"","location":"1611 W. Augusta Blvd","altitude":"","testStation":false,"lastCommunicationTime":null,"landMark":"248"},{"id":31,"stationName":"Franklin St & Chicago Ave","availableDocks":16,"totalDocks":23,"latitude":41.89680204,"longitude":-87.63563839,"statusValue":"In Service","statusKey":1,"availableBikes":7,"stAddress1":"Franklin St & Chicago Ave","stAddress2":"","city":"","postalCode":"","location":"805 N. Franklin St","altitude":"","testStation":false,"lastCommunicationTime":null,"landMark":"017"},{"id":32,"stationName":"Racine Ave & Congress Pkwy","availableDocks":10,"totalDocks":19,"latitude":41.87464,"longitude":-87.65703,"statusValue":"In Service","statusKey":1,"availableBikes":9,"stAddress1":"Racine Ave & Congress Pkwy","stAddress2":"","city":"","postalCode":"","location":"550 S. Racine","altitude":"","testStation":false,"lastCommunicationTime":null,"landMark":"076"},{"id":33,"stationName":"State St & Van Buren St","availableDocks":18,"totalDocks":27,"latitude":41.877181,"longitude":-87.627844,"statusValue":"In Service","statusKey":1,"availableBikes":9,"stAddress1":"State St & Van Buren St","stAddress2":"","city":"","postalCode":"","location":"360 S State St","altitude":"","testStation":false,"lastCommunicationTime":null,"landMark":"003"},{"id":34,"stationName":"Cannon Dr & Fullerton Ave","availableDocks":6,"totalDocks":15,"latitude":41.9267559875,"longitude":-87.6344287848,"statusValue":"In Service","statusKey":1,"availableBikes":9,"stAddress1":"Cannon Dr & Fullerton Ave","stAddress2":"","city":"","postalCode":"","location":"2432 N. Cannon Dr.","altitude":"","testStation":false,"lastCommunicationTime":null,"landMark":"124"},{"id":35,"stationName":"Streeter Dr & Illinois St","availableDocks":32,"totalDocks":35,"latitude":41.891071,"longitude":-87.6122,"statusValue":"In Service","statusKey":1,"availableBikes":3,"stAddress1":"Streeter Dr & Illinois St","stAddress2":"","city":"","postalCode":"","location":"585 E. Illinois st","altitude":"","testStation":false,"lastCommunicationTime":null,"landMark":"022"},{"id":36,"stationName":"Franklin St & Jackson Blvd","availableDocks":17,"totalDocks":27,"latitude":41.8777079559,"longitude":-87.6353211408,"statusValue":"In Service","statusKey":1,"availableBikes":10,"stAddress1":"Franklin St & Jackson Blvd","stAddress2":"","city":"","postalCode":"","location":"340 S. Franklin St","altitude":"","testStation":false,"lastCommunicationTime":null,"landMark":"019"},{"id":37,"stationName":"Dearborn St & Adams St","availableDocks":14,"totalDocks":19,"latitude":41.8793563587,"longitude":-87.6297910363,"statusValue":"In Service","statusKey":1,"availableBikes":5,"stAddress1":"Dearborn St & Adams St","stAddress2":"","city":"","postalCode":"","location":"59 W. Adams St ","altitude":"","testStation":false,"lastCommunicationTime":null,"landMark":"020"},{"id":42,"stationName":"Wabash Ave & Cermak Rd","availableDocks":10,"totalDocks":15,"latitude":41.8532387578,"longitude":-87.6253370902,"statusValue":"In Service","statusKey":1,"availableBikes":5,"stAddress1":"Wabash Ave & Cermak Rd","stAddress2":"","city":"","postalCode":"","location":"2119 S. Wabash Ave.","altitude":"","testStation":false,"lastCommunicationTime":null,"landMark":"170"},{"id":43,"stationName":"Michigan Ave & Washington St","availableDocks":26,"totalDocks":43,"latitude":41.8838927658,"longitude":-87.6246491409,"statusValue":"In Service","statusKey":1,"availableBikes":17,"stAddress1":"Michigan Ave & Washington St","stAddress2":"","city":"","postalCode":"","location":"120 N Michigan","altitude":"","testStation":false,"lastCommunicationTime":null,"landMark":"001"},{"id":44,"stationName":"State St & Randolph St","availableDocks":24,"totalDocks":27,"latitude":41.8847302006,"longitude":-87.6277335692,"statusValue":"In Service","statusKey":1,"availableBikes":3,"stAddress1":"State St & Randolph St","stAddress2":"","city":"","postalCode":"","location":"","altitude":"","testStation":false,"lastCommunicationTime":null,"landMark":"002"},{"id":45,"stationName":"Michigan Ave & Congress Pkwy","availableDocks":7,"totalDocks":15,"latitude":41.876065599,"longitude":-87.6244333636,"statusValue":"In Service","statusKey":1,"availableBikes":8,"stAddress1":"Michigan Ave & Congress Pkwy","stAddress2":"","city":"","postalCode":"","location":"420 w. Michigan","altitude":"","testStation":false,"lastCommunicationTime":null,"landMark":"040"},{"id":46,"stationName":"Wells St & Walton St","availableDocks":14,"totalDocks":19,"latitude":41.89993001,"longitude":-87.63443007,"statusValue":"In Service","statusKey":1,"availableBikes":5,"stAddress1":"Wells St & Walton St","stAddress2":"","city":"","postalCode":"","location":"932 N. Wells St.","altitude":"","testStation":false,"lastCommunicationTime":null,"landMark":"046"},{"id":47,"stationName":"State St & Kinzie St","availableDocks":7,"totalDocks":15,"latitude":41.88918,"longitude":-87.6277,"statusValue":"In Service","statusKey":1,"availableBikes":8,"stAddress1":"State St & Kinzie St","stAddress2":"","city":"","postalCode":"","location":"5 E. Kinzie St.","altitude":"","testStation":false,"lastCommunicationTime":null,"landMark":"050"},{"id":48,"stationName":"Larrabee St & Kingsbury St","availableDocks":12,"totalDocks":19,"latitude":41.897764,"longitude":-87.642884,"statusValue":"In Service","statusKey":1,"availableBikes":7,"stAddress1":"Larrabee St & Kingsbury St","stAddress2":"","city":"","postalCode":"","location":"840 N. Larrabee St.","altitude":"","testStation":false,"lastCommunicationTime":null,"landMark":"012"},{"id":49,"stationName":"Dearborn St & Monroe St","availableDocks":16,"totalDocks":23,"latitude":41.881319815,"longitude":-87.6295209193,"statusValue":"In Service","statusKey":1,"availableBikes":7,"stAddress1":"Dearborn St & Monroe St","stAddress2":"","city":"","postalCode":"","location":"80 S. Dearborn St.","altitude":"","testStation":false,"lastCommunicationTime":null,"landMark":"049"},{"id":50,"stationName":"Clark St & Congress Pkwy","availableDocks":13,"totalDocks":27,"latitude":41.8759326655,"longitude":-87.6305845355,"statusValue":"In Service","statusKey":1,"availableBikes":14,"stAddress1":"Clark St & Congress Pkwy","stAddress2":"","city":"","postalCode":"","location":"","altitude":"","testStation":false,"lastCommunicationTime":null,"landMark":"009"},{"id":51,"stationName":"Clark St & Randolph St","availableDocks":27,"totalDocks":31,"latitude":41.884576228,"longitude":-87.63188991,"statusValue":"In Service","statusKey":1,"availableBikes":4,"stAddress1":"Clark St & Randolph St","stAddress2":"","city":"","postalCode":"","location":"120 W. Randolph St.","altitude":"","testStation":false,"lastCommunicationTime":null,"landMark":"005"},{"id":52,"stationName":"Michigan Ave & Lake St","availableDocks":12,"totalDocks":23,"latitude":41.8860581151,"longitude":-87.6242893413,"statusValue":"In Service","statusKey":1,"availableBikes":11,"stAddress1":"Michigan Ave & Lake St","stAddress2":"","city":"","postalCode":"","location":"203 N. Michigan Ave.","altitude":"","testStation":false,"lastCommunicationTime":null,"landMark":"043"},{"id":53,"stationName":"Wells St & Huron St","availableDocks":12,"totalDocks":19,"latitude":41.8947375479,"longitude":-87.6338828668,"statusValue":"In Service","statusKey":1,"availableBikes":7,"stAddress1":"Wells St & Huron St","stAddress2":"","city":"","postalCode":"","location":"171 W. Huron","altitude":"","testStation":false,"lastCommunicationTime":null,"landMark":"064"},{"id":54,"stationName":"Ogden Ave & Chicago Ave","availableDocks":9,"totalDocks":19,"latitude":41.896362458,"longitude":-87.6540612729,"statusValue":"In Service","statusKey":1,"availableBikes":10,"stAddress1":"Ogden Ave & Chicago Ave","stAddress2":"","city":"","postalCode":"","location":"1040 W. Chicago Ave.","altitude":"","testStation":false,"lastCommunicationTime":null,"landMark":"044"},{"id":55,"stationName":"Halsted St & James M Rochford St","availableDocks":6,"totalDocks":15,"latitude":41.865861,"longitude":-87.646611,"statusValue":"In Service","statusKey":1,"availableBikes":9,"stAddress1":"Halsted St & James M Rochford St","stAddress2":"","city":"","postalCode":"","location":"791 W. James M. Rochford St.","altitude":"","testStation":false,"lastCommunicationTime":null,"landMark":"166"},{"id":56,"stationName":"Desplaines St & Kinzie St","availableDocks":5,"totalDocks":19,"latitude":41.888716036,"longitude":-87.6444478533,"statusValue":"In Service","statusKey":1,"availableBikes":14,"stAddress1":"Desplaines St & Kinzie St","stAddress2":"","city":"","postalCode":"","location":"368 N. Desplaines St.","altitude":"","testStation":false,"lastCommunicationTime":null,"landMark":"039"},{"id":57,"stationName":"Clinton St & Roosevelt Rd","availableDocks":8,"totalDocks":15,"latitude":41.8671177825,"longitude":-87.6410879593,"statusValue":"In Service","statusKey":1,"availableBikes":7,"stAddress1":"Clinton St & Roosevelt Rd","stAddress2":"","city":"","postalCode":"","location":"559 W. Roosevelt Rd.","altitude":"","testStation":false,"lastCommunicationTime":null,"landMark":"327"},{"id":58,"stationName":"Ashland Ave & Armitage Ave","availableDocks":11,"totalDocks":15,"latitude":41.9178588677,"longitude":-87.668919,"statusValue":"In Service","statusKey":1,"availableBikes":4,"stAddress1":"Ashland Ave & Armitage Ave","stAddress2":"","city":"","postalCode":"","location":"1639 W. Armitage Ave.","altitude":"","testStation":false,"lastCommunicationTime":null,"landMark":"025"},{"id":59,"stationName":"Wabash Ave & Roosevelt Rd","availableDocks":2,"totalDocks":19,"latitude":41.8671729952,"longitude":-87.6259550069,"statusValue":"In Service","statusKey":1,"availableBikes":17,"stAddress1":"Wabash Ave & Roosevelt Rd","stAddress2":"","city":"","postalCode":"","location":"1210 S. Wabash Ave.","altitude":"","testStation":false,"lastCommunicationTime":null,"landMark":"031"},{"id":60,"stationName":"Dayton St & North Ave","availableDocks":11,"totalDocks":19,"latitude":41.9105780349,"longitude":-87.6494219288,"statusValue":"In Service","statusKey":1,"availableBikes":8,"stAddress1":"Dayton St & North Ave","stAddress2":"","city":"","postalCode":"","location":"1575 N. Dayton St.","altitude":"","testStation":false,"lastCommunicationTime":null,"landMark":"058"},{"id":61,"stationName":"Wood St & Milwaukee Ave","availableDocks":8,"totalDocks":15,"latitude":41.907655,"longitude":-87.672552,"statusValue":"In Service","statusKey":1,"availableBikes":7,"stAddress1":"Wood St & Milwaukee Ave","stAddress2":"","city":"","postalCode":"","location":"1416 N. Wood","altitude":"","testStation":false,"lastCommunicationTime":null,"landMark":"221"},{"id":62,"stationName":"McCormick Place","availableDocks":4,"totalDocks":15,"latitude":41.8513751729,"longitude":-87.6188346489,"statusValue":"In Service","statusKey":1,"availableBikes":11,"stAddress1":"McCormick Place","stAddress2":"","city":"","postalCode":"","location":"2253 S. Dr. Martin Luther King Jr Dr.","altitude":"","testStation":false,"lastCommunicationTime":null,"landMark":"106"},{"id":66,"stationName":"Clinton St & Lake St","availableDocks":5,"totalDocks":19,"latitude":41.8858327415,"longitude":-87.6413823149,"statusValue":"In Service","statusKey":1,"availableBikes":14,"stAddress1":"Clinton St & Lake St","stAddress2":"","city":"","postalCode":"","location":"202 N. Clinton St.","altitude":"","testStation":false,"lastCommunicationTime":null,"landMark":"021"},{"id":67,"stationName":"Sheffield Ave & Fullerton Ave","availableDocks":9,"totalDocks":15,"latitude":41.9256018819,"longitude":-87.6537080423,"statusValue":"In Service","statusKey":1,"availableBikes":6,"stAddress1":"Sheffield Ave & Fullerton Ave","stAddress2":"","city":"","postalCode":"","location":"2410 N. Sheffield Ave.","altitude":"","testStation":false,"lastCommunicationTime":null,"landMark":"060"},{"id":68,"stationName":"Clinton St & Tilden St","availableDocks":8,"totalDocks":23,"latitude":41.875885,"longitude":-87.640795,"statusValue":"In Service","statusKey":1,"availableBikes":15,"stAddress1":"Clinton St & Tilden St","stAddress2":"","city":"","postalCode":"","location":"520 W. Tilden","altitude":"","testStation":false,"lastCommunicationTime":null,"landMark":"037"},{"id":69,"stationName":"Damen Ave & Pierce Ave","availableDocks":8,"totalDocks":19,"latitude":41.9093960065,"longitude":-87.6776919292,"statusValue":"In Service","statusKey":1,"availableBikes":11,"stAddress1":"Damen Ave & Pierce Ave","stAddress2":"","city":"","postalCode":"","location":"2002 W. Pierce Ave.","altitude":"","testStation":false,"lastCommunicationTime":null,"landMark":"065"},{"id":71,"stationName":"Morgan St & Lake St","availableDocks":9,"totalDocks":15,"latitude":41.8854833079,"longitude":-87.6523048564,"statusValue":"In Service","statusKey":1,"availableBikes":6,"stAddress1":"Morgan St & Lake St","stAddress2":"","city":"","postalCode":"","location":"1003 W. Lake St.","altitude":"","testStation":false,"lastCommunicationTime":null,"landMark":"072"},{"id":72,"stationName":"State St & 16th St","availableDocks":4,"totalDocks":15,"latitude":41.8601213774,"longitude":-87.6277291853,"statusValue":"In Service","statusKey":1,"availableBikes":11,"stAddress1":"State St & 16th St","stAddress2":"","city":"","postalCode":"","location":"1 W. 16th St.","altitude":"","testStation":false,"lastCommunicationTime":null,"landMark":"148"},{"id":73,"stationName":"Jefferson St & Monroe St","availableDocks":6,"totalDocks":19,"latitude":41.880422,"longitude":-87.642746,"statusValue":"In Service","statusKey":1,"availableBikes":13,"stAddress1":"Jefferson St & Monroe St","stAddress2":"","city":"","postalCode":"","location":"207 S. Jefferson St.","altitude":"","testStation":false,"lastCommunicationTime":null,"landMark":"038"},{"id":74,"stationName":"Kingsbury St & Erie St","availableDocks":19,"totalDocks":23,"latitude":41.89384315,"longitude":-87.64185116,"statusValue":"In Service","statusKey":1,"availableBikes":4,"stAddress1":"Kingsbury St & Erie St","stAddress2":"","city":"","postalCode":"","location":"511 W Erie","altitude":"","testStation":false,"lastCommunicationTime":null,"landMark":"265"},{"id":75,"stationName":"Canal St & Jackson Blvd","availableDocks":19,"totalDocks":35,"latitude":41.87811421,"longitude":-87.63997112,"statusValue":"In Service","statusKey":1,"availableBikes":16,"stAddress1":"Canal St & Jackson Blvd","stAddress2":"","city":"","postalCode":"","location":"510 W. Jackson Blvd.","altitude":"","testStation":false,"lastCommunicationTime":null,"landMark":"138"},{"id":76,"stationName":"Lake Shore Dr & Monroe St","availableDocks":3,"totalDocks":11,"latitude":41.88105,"longitude":-87.61697,"statusValue":"In Service","statusKey":1,"availableBikes":8,"stAddress1":"Lake Shore Dr & Monroe St","stAddress2":"","city":"","postalCode":"","location":"402 E. Monroe St.","altitude":"","testStation":false,"lastCommunicationTime":null,"landMark":"300"},{"id":77,"stationName":"Clinton St & Madison St","availableDocks":11,"totalDocks":23,"latitude":41.8815824,"longitude":-87.64127743,"statusValue":"In Service","statusKey":1,"availableBikes":12,"stAddress1":"Clinton St & Madison St","stAddress2":"","city":"","postalCode":"","location":"8 S. Clinton St.","altitude":"","testStation":false,"lastCommunicationTime":null,"landMark":"301"},{"id":80,"stationName":"Aberdeen St & Madison St","availableDocks":10,"totalDocks":19,"latitude":41.881487,"longitude":-87.654752,"statusValue":"In Service","statusKey":1,"availableBikes":9,"stAddress1":"Aberdeen St & Madison St","stAddress2":"","city":"","postalCode":"","location":"1059 W. Madison St.","altitude":"","testStation":false,"lastCommunicationTime":null,"landMark":"156"},{"id":81,"stationName":"Dearborn St & Washington St","availableDocks":37,"totalDocks":43,"latitude":41.8833135,"longitude":-87.62971344,"statusValue":"In Service","statusKey":1,"availableBikes":6,"stAddress1":"Dearborn St & Washington St","stAddress2":"","city":"","postalCode":"","location":"48 W. Washington St.","altitude":"","testStation":false,"lastCommunicationTime":null,"landMark":"023"},{"id":84,"stationName":"Green St & Milwaukee Ave","availableDocks":10,"totalDocks":19,"latitude":41.891733,"longitude":-87.648727,"statusValue":"In Service","statusKey":1,"availableBikes":9,"stAddress1":"Green St & Milwaukee Ave","stAddress2":"","city":"","postalCode":"","location":"820 W. Grand Ave.","altitude":"","testStation":false,"lastCommunicationTime":null,"landMark":"033"},{"id":85,"stationName":"Michigan Ave & Oak St","availableDocks":7,"totalDocks":15,"latitude":41.90096039,"longitude":-87.62377664,"statusValue":"In Service","statusKey":1,"availableBikes":8,"stAddress1":"Michigan Ave & Oak St","stAddress2":"","city":"Chicago","postalCode":"","location":"140 E. Oak St.","altitude":"","testStation":false,"lastCommunicationTime":null,"landMark":"042"},{"id":86,"stationName":"Eckhart Park","availableDocks":6,"totalDocks":15,"latitude":41.89637337,"longitude":-87.66098386,"statusValue":"In Service","statusKey":1,"availableBikes":9,"stAddress1":"Eckhart Park","stAddress2":"","city":"","postalCode":"","location":"811 N. Noble St.","altitude":"","testStation":false,"lastCommunicationTime":null,"landMark":"289"},{"id":87,"stationName":"Racine Ave & Fullerton Ave","availableDocks":10,"totalDocks":19,"latitude":41.92556258,"longitude":-87.65840426,"statusValue":"In Service","statusKey":1,"availableBikes":9,"stAddress1":"Racine Ave & Fullerton Ave","stAddress2":"","city":"","postalCode":"","location":"2411 N. Racine","altitude":"","testStation":false,"lastCommunicationTime":null,"landMark":"189"},{"id":88,"stationName":"May St & Randolph St","availableDocks":7,"totalDocks":15,"latitude":41.88397,"longitude":-87.655688,"statusValue":"In Service","statusKey":1,"availableBikes":8,"stAddress1":"May St & Randolph St","stAddress2":"","city":"","postalCode":"","location":"1213 W. Washington St.","altitude":"","testStation":false,"lastCommunicationTime":null,"landMark":"155"},{"id":90,"stationName":"Millennium Park","availableDocks":25,"totalDocks":35,"latitude":41.8810317,"longitude":-87.62408432,"statusValue":"In Service","statusKey":1,"availableBikes":10,"stAddress1":"Millennium Park","stAddress2":"","city":"","postalCode":"","location":"33 S. Michigan Ave.","altitude":"","testStation":false,"lastCommunicationTime":null,"landMark":"008"},{"id":91,"stationName":"Clinton St & Washington Blvd","availableDocks":9,"totalDocks":31,"latitude":41.88338,"longitude":-87.64117,"statusValue":"In Service","statusKey":1,"availableBikes":22,"stAddress1":"Clinton St & Washington Blvd","stAddress2":"","city":"","postalCode":"","location":"109 N. Clinton St.","altitude":"","testStation":false,"lastCommunicationTime":null,"landMark":"010"},{"id":92,"stationName":"Carpenter St & Huron St","availableDocks":9,"totalDocks":19,"latitude":41.894854,"longitude":-87.653456,"statusValue":"In Service","statusKey":1,"availableBikes":10,"stAddress1":"Carpenter St & Huron St","stAddress2":"","city":"","postalCode":"","location":"","altitude":"","testStation":false,"lastCommunicationTime":null,"landMark":"196"},{"id":93,"stationName":"Sheffield Ave & Willow St","availableDocks":8,"totalDocks":15,"latitude":41.913688,"longitude":-87.652855,"statusValue":"In Service","statusKey":1,"availableBikes":7,"stAddress1":"Sheffield Ave & Willow St","stAddress2":"","city":"","postalCode":"","location":"1740 N. Sheffield Ave.","altitude":"","testStation":false,"lastCommunicationTime":null,"landMark":"190"},{"id":94,"stationName":"Lincoln Ave & Armitage Ave","availableDocks":11,"totalDocks":19,"latitude":41.918273,"longitude":-87.638116,"statusValue":"In Service","statusKey":1,"availableBikes":8,"stAddress1":"Lincoln Ave & Armitage Ave","stAddress2":"","city":"","postalCode":"","location":"1963 N. Lincoln Ave.","altitude":"","testStation":false,"lastCommunicationTime":null,"landMark":"146"},{"id":97,"stationName":"Museum Campus","availableDocks":9,"totalDocks":19,"latitude":41.865212,"longitude":-87.617759,"statusValue":"In Service","statusKey":1,"availableBikes":10,"stAddress1":"Museum Campus","stAddress2":"\n\n\t\n","city":"","postalCode":"","location":"E. McFetridge ","altitude":"","testStation":false,"lastCommunicationTime":null,"landMark":"029"},{"id":98,"stationName":"LaSalle St & Washington St","availableDocks":11,"totalDocks":15,"latitude":41.882664,"longitude":-87.63253,"statusValue":"In Service","statusKey":1,"availableBikes":4,"stAddress1":"LaSalle St & Washington St","stAddress2":"","city":"","postalCode":"","location":"","altitude":"","testStation":false,"lastCommunicationTime":null,"landMark":"006"},{"id":99,"stationName":"Lake Shore Dr & Ohio St","availableDocks":6,"totalDocks":19,"latitude":41.89257,"longitude":-87.614492,"statusValue":"In Service","statusKey":1,"availableBikes":13,"stAddress1":"Lake Shore Dr & Ohio St","stAddress2":"","city":"","postalCode":"","location":"","altitude":"","testStation":false,"lastCommunicationTime":null,"landMark":"337"},{"id":100,"stationName":"Orleans St & Merchandise Mart Plaza","availableDocks":19,"totalDocks":23,"latitude":41.888243,"longitude":-87.63639,"statusValue":"In Service","statusKey":1,"availableBikes":4,"stAddress1":"Orleans St & Merchandise Mart Plaza","stAddress2":"","city":"","postalCode":"","location":"333 N Orleans st ","altitude":"","testStation":false,"lastCommunicationTime":null,"landMark":"013"},{"id":106,"stationName":"State St & Pearson St","availableDocks":17,"totalDocks":27,"latitude":41.897448,"longitude":-87.628722,"statusValue":"In Service","statusKey":1,"availableBikes":10,"stAddress1":"State St & Pearson St","stAddress2":"","city":"","postalCode":"","location":"","altitude":"","testStation":false,"lastCommunicationTime":null,"landMark":"014"},{"id":108,"stationName":"Halsted St & Polk St","availableDocks":10,"totalDocks":19,"latitude":41.87184,"longitude":-87.64664,"statusValue":"In Service","statusKey":1,"availableBikes":9,"stAddress1":"Halsted St & Polk St","stAddress2":"","city":"Chicago","postalCode":"","location":"","altitude":"","testStation":false,"lastCommunicationTime":null,"landMark":"027"},{"id":109,"stationName":"900 W Harrison","availableDocks":13,"totalDocks":19,"latitude":41.8745,"longitude":-87.6498,"statusValue":"In Service","statusKey":1,"availableBikes":6,"stAddress1":"Halsted St & Harrison St","stAddress2":"","city":"Chicago","postalCode":"","location":"","altitude":"","testStation":false,"lastCommunicationTime":null,"landMark":"028"},{"id":110,"stationName":"State St & Erie St","availableDocks":16,"totalDocks":23,"latitude":41.893975,"longitude":-87.628623,"statusValue":"In Service","statusKey":1,"availableBikes":7,"stAddress1":"State St & Erie St","stAddress2":"","city":"Chicago","postalCode":"","location":"","altitude":"","testStation":false,"lastCommunicationTime":null,"landMark":"045"},{"id":111,"stationName":"Sedgwick St & Huron St","availableDocks":11,"totalDocks":19,"latitude":41.894666,"longitude":-87.638437,"statusValue":"In Service","statusKey":1,"availableBikes":8,"stAddress1":"Sedgwick St & Huron St","stAddress2":"","city":"","postalCode":"","location":"","altitude":"","testStation":false,"lastCommunicationTime":null,"landMark":"052"},{"id":112,"stationName":"Green St & Randolph St","availableDocks":7,"totalDocks":15,"latitude":41.884078,"longitude":-87.648684,"statusValue":"In Service","statusKey":1,"availableBikes":8,"stAddress1":"Green St & Randolph St","stAddress2":"","city":"Chicago ","postalCode":"","location":"","altitude":"","testStation":false,"lastCommunicationTime":null,"landMark":"053"},{"id":114,"stationName":"Sheffield Ave & Addison St","availableDocks":13,"totalDocks":27,"latitude":41.94688,"longitude":-87.65445,"statusValue":"In Service","statusKey":1,"availableBikes":14,"stAddress1":"Sheffield Ave & Addison St","stAddress2":"","city":"Chicago","postalCode":"","location":"","altitude":"","testStation":false,"lastCommunicationTime":null,"landMark":"062"},{"id":115,"stationName":"Sheffield Ave & Wellington Ave","availableDocks":14,"totalDocks":23,"latitude":41.936253,"longitude":-87.653566,"statusValue":"In Service","statusKey":1,"availableBikes":9,"stAddress1":"Sheffield Ave & Wellington Ave","stAddress2":"","city":"Chicago","postalCode":"","location":"","altitude":"","testStation":false,"lastCommunicationTime":null,"landMark":"067"},{"id":116,"stationName":"Western Ave & Winnebago Ave","availableDocks":5,"totalDocks":15,"latitude":41.915533,"longitude":-87.687051,"statusValue":"In Service","statusKey":1,"availableBikes":10,"stAddress1":"Western Ave & Winnebago Ave","stAddress2":"","city":"Chicago","postalCode":"","location":"","altitude":"","testStation":false,"lastCommunicationTime":null,"landMark":"068"},{"id":117,"stationName":"Wilton Ave & Belmont Ave","availableDocks":11,"totalDocks":23,"latitude":41.94018,"longitude":-87.65304,"statusValue":"In Service","statusKey":1,"availableBikes":12,"stAddress1":"Wilton Ave & Belmont Ave","stAddress2":"","city":"Chicago","postalCode":"","location":"","altitude":"","testStation":false,"lastCommunicationTime":null,"landMark":"069"},{"id":118,"stationName":"Sedgwick St & North Ave","availableDocks":9,"totalDocks":19,"latitude":41.910579,"longitude":-87.638618,"statusValue":"In Service","statusKey":1,"availableBikes":10,"stAddress1":"Sedgwick St & North Ave","stAddress2":"","city":"Chicago","postalCode":"","location":"","altitude":"","testStation":false,"lastCommunicationTime":null,"landMark":"070"},{"id":119,"stationName":"Ashland Ave & Lake St","availableDocks":6,"totalDocks":18,"latitude":41.88541,"longitude":-87.66732,"statusValue":"In Service","statusKey":1,"availableBikes":12,"stAddress1":"Ashland Ave & Lake St","stAddress2":"","city":"Chicago","postalCode":"","location":"","altitude":"","testStation":false,"lastCommunicationTime":null,"landMark":"073"},{"id":120,"stationName":"Wentworth Ave & Archer Ave","availableDocks":5,"totalDocks":15,"latitude":41.854564,"longitude":-87.631937,"statusValue":"In Service","statusKey":1,"availableBikes":10,"stAddress1":"Wentworth Ave & Archer Ave","stAddress2":"","city":"Chicago","postalCode":"","location":"","altitude":"","testStation":false,"lastCommunicationTime":null,"landMark":"075"},{"id":122,"stationName":"Congress Pkwy & Ogden Ave","availableDocks":7,"totalDocks":15,"latitude":41.87501,"longitude":-87.67328,"statusValue":"In Service","statusKey":1,"availableBikes":8,"stAddress1":"Congress Pkwy & Ogden Ave","stAddress2":"","city":"Chicago","postalCode":"","location":"","altitude":"","testStation":false,"lastCommunicationTime":null,"landMark":"081"},{"id":123,"stationName":"California Ave & Milwaukee Ave","availableDocks":6,"totalDocks":15,"latitude":41.922695,"longitude":-87.697153,"statusValue":"In Service","statusKey":1,"availableBikes":9,"stAddress1":"California Ave & Milwaukee Ave","stAddress2":"","city":"Chicago","postalCode":"","location":"","altitude":"","testStation":false,"lastCommunicationTime":null,"landMark":"084"},{"id":124,"stationName":"Damen Ave & Cullerton St","availableDocks":6,"totalDocks":15,"latitude":41.855048,"longitude":-87.675726,"statusValue":"In Service","statusKey":1,"availableBikes":9,"stAddress1":"Damen Ave & Cullerton St","stAddress2":"","city":"Chicago","postalCode":"","location":"","altitude":"","testStation":false,"lastCommunicationTime":null,"landMark":"089"},{"id":126,"stationName":"Clark St & North Ave","availableDocks":7,"totalDocks":15,"latitude":41.911791,"longitude":-87.631841,"statusValue":"In Service","statusKey":1,"availableBikes":8,"stAddress1":"Clark St & North Ave","stAddress2":"","city":"Chicago ","postalCode":"","location":"","altitude":"","testStation":false,"lastCommunicationTime":null,"landMark":"128"},{"id":128,"stationName":"Damen Ave & Chicago Ave","availableDocks":8,"totalDocks":15,"latitude":41.895769,"longitude":-87.67722,"statusValue":"In Service","statusKey":1,"availableBikes":7,"stAddress1":"Damen Ave & Chicago Ave","stAddress2":"","city":"Chicago ","postalCode":"","location":"","altitude":"","testStation":false,"lastCommunicationTime":null,"landMark":"132"},{"id":129,"stationName":"Blue Island Ave & 18th St","availableDocks":8,"totalDocks":15,"latitude":41.857556,"longitude":-87.661535,"statusValue":"In Service","statusKey":1,"availableBikes":7,"stAddress1":"Blue Island Ave & 18th St","stAddress2":"","city":"Chicago ","postalCode":"","location":"","altitude":"","testStation":false,"lastCommunicationTime":null,"landMark":"135"},{"id":130,"stationName":"Damen Ave & Division St","availableDocks":1,"totalDocks":15,"latitude":41.90331,"longitude":-87.67695,"statusValue":"In Service","statusKey":1,"availableBikes":14,"stAddress1":"Damen Ave & Division St","stAddress2":"","city":"Chicago ","postalCode":"","location":"","altitude":"","testStation":false,"lastCommunicationTime":null,"landMark":"136"},{"id":134,"stationName":"Peoria St & Jackson Blvd","availableDocks":8,"totalDocks":19,"latitude":41.877749,"longitude":-87.649633,"statusValue":"In Service","statusKey":1,"availableBikes":11,"stAddress1":"Peoria St & Jackson Blvd","stAddress2":"","city":"Chicago","postalCode":"","location":"","altitude":"","testStation":false,"lastCommunicationTime":null,"landMark":"158"},{"id":135,"stationName":"Halsted St & 21st St","availableDocks":5,"totalDocks":11,"latitude":41.85378,"longitude":-87.64665,"statusValue":"In Service","statusKey":1,"availableBikes":6,"stAddress1":"Halsted St & 21st St","stAddress2":"","city":"Chicago","postalCode":"","location":"","altitude":"","testStation":false,"lastCommunicationTime":null,"landMark":"162"},{"id":136,"stationName":"Racine Ave & 13th St","availableDocks":6,"totalDocks":15,"latitude":41.865054,"longitude":-87.656959,"statusValue":"In Service","statusKey":1,"availableBikes":9,"stAddress1":"Racine Ave & 13th St","stAddress2":"","city":"Chicago ","postalCode":"","location":"","altitude":"","testStation":false,"lastCommunicationTime":null,"landMark":"165"},{"id":137,"stationName":"Morgan Ave & 14th Pl","availableDocks":8,"totalDocks":15,"latitude":41.862378,"longitude":-87.651062,"statusValue":"In Service","statusKey":1,"availableBikes":7,"stAddress1":"Morgan Ave & 14th Pl","stAddress2":"","city":"Chicago ","postalCode":"","location":"","altitude":"","testStation":false,"lastCommunicationTime":null,"landMark":"169"},{"id":138,"stationName":"Clybourn Ave & Division St","availableDocks":10,"totalDocks":15,"latitude":41.904509,"longitude":-87.6405,"statusValue":"In Service","statusKey":1,"availableBikes":5,"stAddress1":"Clybourn Ave & Division St","stAddress2":"","city":"Chicago ","postalCode":"","location":"","altitude":"","testStation":false,"lastCommunicationTime":null,"landMark":"171"},{"id":140,"stationName":"Dearborn Pkwy & Delaware Pl","availableDocks":5,"totalDocks":19,"latitude":41.899007,"longitude":-87.629928,"statusValue":"In Service","statusKey":1,"availableBikes":14,"stAddress1":"Dearborn Pkwy & Delaware Pl","stAddress2":"","city":"Chicago ","postalCode":"","location":"","altitude":"","testStation":false,"lastCommunicationTime":null,"landMark":"173"},{"id":141,"stationName":"Clark St & Lincoln Ave","availableDocks":7,"totalDocks":19,"latitude":41.915689,"longitude":-87.6346,"statusValue":"In Service","statusKey":1,"availableBikes":12,"stAddress1":"Clark St & Lincoln Ave","stAddress2":"","city":"Chicago ","postalCode":"","location":"","altitude":"","testStation":false,"lastCommunicationTime":null,"landMark":"179"},{"id":143,"stationName":"Sedgwick St & Webster Ave","availableDocks":5,"totalDocks":15,"latitude":41.92197,"longitude":-87.63854,"statusValue":"In Service","statusKey":1,"availableBikes":10,"stAddress1":"Sedgwick St & Webster Ave","stAddress2":"","city":"Chicago ","postalCode":"","location":"","altitude":"","testStation":false,"lastCommunicationTime":null,"landMark":"191"},{"id":144,"stationName":"Larrabee St & Webster Ave","availableDocks":7,"totalDocks":15,"latitude":41.92175,"longitude":-87.64401,"statusValue":"In Service","statusKey":1,"availableBikes":8,"stAddress1":"Larrabee St & Webster Ave","stAddress2":"","city":"Chicago ","postalCode":"","location":"","altitude":"","testStation":false,"lastCommunicationTime":null,"landMark":"193"},{"id":146,"stationName":"Loomis St & Jackson Blvd","availableDocks":4,"totalDocks":11,"latitude":41.877945,"longitude":-87.662007,"statusValue":"In Service","statusKey":1,"availableBikes":7,"stAddress1":"Loomis St & Jackson Blvd","stAddress2":"","city":"Chicago ","postalCode":"","location":"","altitude":"","testStation":false,"lastCommunicationTime":null,"landMark":"206"},{"id":147,"stationName":"Indiana Ave & 26th St","availableDocks":10,"totalDocks":15,"latitude":41.8457,"longitude":-87.62248,"statusValue":"In Service","statusKey":1,"availableBikes":5,"stAddress1":"Indiana Ave & 26th St","stAddress2":"","city":"Chicago ","postalCode":"","location":"","altitude":"","testStation":false,"lastCommunicationTime":null,"landMark":"212"},{"id":149,"stationName":"Calumet Ave & 33rd St","availableDocks":3,"totalDocks":11,"latitude":41.8349,"longitude":-87.61793,"statusValue":"In Service","statusKey":1,"availableBikes":8,"stAddress1":"Calumet Ave & 33rd St","stAddress2":"","city":"Chicago ","postalCode":"","location":"","altitude":"","testStation":false,"lastCommunicationTime":null,"landMark":"217"},{"id":150,"stationName":"Fort Dearborn Dr & 31st St","availableDocks":6,"totalDocks":11,"latitude":41.838556,"longitude":-87.608218,"statusValue":"In Service","statusKey":1,"availableBikes":5,"stAddress1":"Fort Dearborn Dr & 31st St","stAddress2":"","city":"Chicago ","postalCode":"","location":"","altitude":"","testStation":false,"lastCommunicationTime":null,"landMark":"220"},{"id":152,"stationName":"Lincoln Ave & Diversey Pkwy","availableDocks":9,"totalDocks":15,"latitude":41.932225,"longitude":-87.658617,"statusValue":"In Service","statusKey":1,"availableBikes":6,"stAddress1":"Lincoln Ave & Diversey Pkwy","stAddress2":"","city":"Chicago ","postalCode":"","location":"","altitude":"","testStation":false,"lastCommunicationTime":null,"landMark":"226"},{"id":153,"stationName":"Southport Ave & Wellington Ave","availableDocks":9,"totalDocks":19,"latitude":41.93584,"longitude":-87.6637,"statusValue":"In Service","statusKey":1,"availableBikes":10,"stAddress1":"Southport Ave & Wellington Ave","stAddress2":"","city":"Chicago ","postalCode":"","location":"","altitude":"","testStation":false,"lastCommunicationTime":null,"landMark":"228"},{"id":154,"stationName":"Southport Ave & Belmont Ave","availableDocks":8,"totalDocks":15,"latitude":41.93949,"longitude":-87.66378,"statusValue":"In Service","statusKey":1,"availableBikes":7,"stAddress1":"Southport Ave & Belmont Ave","stAddress2":"","city":"Chicago ","postalCode":"","location":"","altitude":"","testStation":false,"lastCommunicationTime":null,"landMark":"229"},{"id":156,"stationName":"Clark St & Wellington Ave","availableDocks":9,"totalDocks":15,"latitude":41.9364968219,"longitude":-87.6475386582,"statusValue":"In Service","statusKey":1,"availableBikes":6,"stAddress1":"Clark St & Wellington Ave","stAddress2":"","city":"Chicago ","postalCode":"","location":"","altitude":"","testStation":false,"lastCommunicationTime":null,"landMark":"232"},{"id":157,"stationName":"Lake Shore Dr & Wellington Ave","availableDocks":5,"totalDocks":15,"latitude":41.936669,"longitude":-87.636794,"statusValue":"In Service","statusKey":1,"availableBikes":10,"stAddress1":"Lake Shore Dr & Wellington Ave","stAddress2":"","city":"Chicago ","postalCode":"","location":"","altitude":"","testStation":false,"lastCommunicationTime":null,"landMark":"234"},{"id":158,"stationName":"Milwaukee Ave & Wabansia Ave","availableDocks":6,"totalDocks":15,"latitude":41.912616,"longitude":-87.681391,"statusValue":"In Service","statusKey":1,"availableBikes":9,"stAddress1":"Milwaukee Ave & Wabansia Ave","stAddress2":"","city":"Chicago ","postalCode":"","location":"","altitude":"","testStation":false,"lastCommunicationTime":null,"landMark":"243"},{"id":159,"stationName":"Claremont Ave & Hirsch St","availableDocks":5,"totalDocks":11,"latitude":41.907781,"longitude":-87.685854,"statusValue":"In Service","statusKey":1,"availableBikes":6,"stAddress1":"1451 N Claremont Ave","stAddress2":"","city":"Chicago","postalCode":"","location":"","altitude":"","testStation":false,"lastCommunicationTime":null,"landMark":"245"},{"id":160,"stationName":"Campbell Ave & North Ave","availableDocks":10,"totalDocks":15,"latitude":41.910535,"longitude":-87.689556,"statusValue":"In Service","statusKey":1,"availableBikes":5,"stAddress1":"Campbell Ave & North Ave","stAddress2":"","city":"Chicago","postalCode":"","location":"","altitude":"","testStation":false,"lastCommunicationTime":null,"landMark":"257"},{"id":162,"stationName":"Damen Ave & Wellington Ave","availableDocks":2,"totalDocks":15,"latitude":41.93588,"longitude":-87.67842,"statusValue":"In Service","statusKey":1,"availableBikes":13,"stAddress1":"Damen Ave & Wellington Ave","stAddress2":"","city":"Chicago","postalCode":"","location":"","altitude":"","testStation":false,"lastCommunicationTime":null,"landMark":"268"},{"id":163,"stationName":"Paulina St & Diversey Pkwy","availableDocks":3,"totalDocks":15,"latitude":41.93186,"longitude":-87.67079,"statusValue":"In Service","statusKey":1,"availableBikes":12,"stAddress1":"Paulina St & Diversey Pkwy","stAddress2":"","city":"Chicago","postalCode":"","location":"","altitude":"","testStation":false,"lastCommunicationTime":null,"landMark":"271"},{"id":164,"stationName":"Franklin St & Lake St","availableDocks":19,"totalDocks":23,"latitude":41.885837,"longitude":-87.6355,"statusValue":"In Service","statusKey":1,"availableBikes":4,"stAddress1":"Franklin St & Lake St","stAddress2":"","city":"Chicago","postalCode":"","location":"","altitude":"","testStation":false,"lastCommunicationTime":null,"landMark":"272"},{"id":165,"stationName":"Clark St & Waveland Ave","availableDocks":9,"totalDocks":19,"latitude":41.94893,"longitude":-87.65775,"statusValue":"In Service","statusKey":1,"availableBikes":10,"stAddress1":"Clark St & Waveland Ave","stAddress2":"","city":"Chicago","postalCode":"","location":"","altitude":"","testStation":false,"lastCommunicationTime":null,"landMark":"275"},{"id":166,"stationName":"Ashland Ave & Wrightwood Ave","availableDocks":8,"totalDocks":15,"latitude":41.92883,"longitude":-87.668507,"statusValue":"In Service","statusKey":1,"availableBikes":7,"stAddress1":"Ashland Ave & Wrightwood Ave","stAddress2":"","city":"Chicago ","postalCode":"","location":"","altitude":"","testStation":false,"lastCommunicationTime":null,"landMark":"296"},{"id":167,"stationName":"Damen Ave & Coulter St","availableDocks":6,"totalDocks":11,"latitude":41.8492,"longitude":-87.67564,"statusValue":"In Service","statusKey":1,"availableBikes":5,"stAddress1":"Damen Ave & Coulter St","stAddress2":"","city":"Chicago ","postalCode":"","location":"","altitude":"","testStation":false,"lastCommunicationTime":null,"landMark":"306"},{"id":168,"stationName":"Michigan Ave & 14th St","availableDocks":12,"totalDocks":19,"latitude":41.86431,"longitude":-87.62384,"statusValue":"In Service","statusKey":1,"availableBikes":7,"stAddress1":"Michigan Ave & 14th St","stAddress2":"","city":"Chicago ","postalCode":"","location":"","altitude":"","testStation":false,"lastCommunicationTime":null,"landMark":"310"},{"id":169,"stationName":"Canal St & Harrison St","availableDocks":10,"totalDocks":15,"latitude":41.874337,"longitude":-87.639566,"statusValue":"In Service","statusKey":1,"availableBikes":5,"stAddress1":"Canal St & Harrison St","stAddress2":"","city":"Chicago ","postalCode":"","location":"","altitude":"","testStation":false,"lastCommunicationTime":null,"landMark":"326"},{"id":170,"stationName":"Clinton St & 18th St","availableDocks":9,"totalDocks":15,"latitude":41.85795,"longitude":-87.640826,"statusValue":"In Service","statusKey":1,"availableBikes":6,"stAddress1":"Clinton St & 18th St","stAddress2":"","city":"","postalCode":"","location":"","altitude":"","testStation":false,"lastCommunicationTime":null,"landMark":"329"},{"id":171,"stationName":"Carpenter St & Cullerton St","availableDocks":4,"totalDocks":11,"latitude":41.8553,"longitude":-87.65352,"statusValue":"In Service","statusKey":1,"availableBikes":7,"stAddress1":"Carpenter St & Cullerton St","stAddress2":"","city":"Chicago ","postalCode":"","location":"","altitude":"","testStation":false,"lastCommunicationTime":null,"landMark":"331"},{"id":173,"stationName":"Mies van der Rohe Way & Chicago Ave","availableDocks":8,"totalDocks":15,"latitude":41.89691,"longitude":-87.621743,"statusValue":"In Service","statusKey":1,"availableBikes":7,"stAddress1":"Mies van der Rohe Way & Chicago Ave","stAddress2":"","city":"Chicago ","postalCode":"","location":"","altitude":"","testStation":false,"lastCommunicationTime":null,"landMark":"338"},{"id":174,"stationName":"Canal St & Madison St","availableDocks":9,"totalDocks":23,"latitude":41.882091,"longitude":-87.639833,"statusValue":"In Service","statusKey":1,"availableBikes":14,"stAddress1":"Canal St & Madison St","stAddress2":"","city":"Chicago ","postalCode":"","location":"","altitude":"","testStation":false,"lastCommunicationTime":null,"landMark":"341"},{"id":175,"stationName":"Wells St & Polk St","availableDocks":11,"totalDocks":19,"latitude":41.87229,"longitude":-87.63433,"statusValue":"In Service","statusKey":1,"availableBikes":8,"stAddress1":"Wells St & Polk St","stAddress2":"","city":"Chicago ","postalCode":"","location":"","altitude":"","testStation":false,"lastCommunicationTime":null,"landMark":"344"},{"id":176,"stationName":"Clark St & Elm St","availableDocks":12,"totalDocks":19,"latitude":41.903233,"longitude":-87.631253,"statusValue":"In Service","statusKey":1,"availableBikes":7,"stAddress1":"Clark St & Elm St","stAddress2":"","city":"Chicago ","postalCode":"","location":"","altitude":"","testStation":false,"lastCommunicationTime":null,"landMark":"349"},{"id":177,"stationName":"Theater on the Lake","availableDocks":8,"totalDocks":15,"latitude":41.926277,"longitude":-87.630834,"statusValue":"In Service","statusKey":1,"availableBikes":7,"stAddress1":"Theater on the Lake","stAddress2":"","city":"Chicago ","postalCode":"","location":"","altitude":"","testStation":false,"lastCommunicationTime":null,"landMark":"350 "},{"id":178,"stationName":"State St & 19th St","availableDocks":12,"totalDocks":15,"latitude":41.856594,"longitude":-87.627542,"statusValue":"In Service","statusKey":1,"availableBikes":3,"stAddress1":"State St & 19th St","stAddress2":"","city":"Chicago ","postalCode":"","location":"","altitude":"","testStation":false,"lastCommunicationTime":null,"landMark":"408"},{"id":179,"stationName":"Martin Luther King Dr & Oakwood Blvd","availableDocks":6,"totalDocks":15,"latitude":41.82256,"longitude":-87.61615,"statusValue":"In Service","statusKey":1,"availableBikes":9,"stAddress1":"Martin Luther King Dr & Oakwood Blvd","stAddress2":"","city":"Chicago","postalCode":"","location":"","altitude":"","testStation":false,"lastCommunicationTime":null,"landMark":"420"},{"id":181,"stationName":"LaSalle St & Illinois St","availableDocks":11,"totalDocks":19,"latitude":41.890749,"longitude":-87.63206,"statusValue":"In Service","statusKey":1,"availableBikes":8,"stAddress1":"LaSalle St & Illinois St","stAddress2":"","city":"Chicago","postalCode":"","location":"","altitude":"","testStation":false,"lastCommunicationTime":null,"landMark":"430"},{"id":183,"stationName":"Damen Ave & Augusta Blvd","availableDocks":9,"totalDocks":15,"latitude":41.899714,"longitude":-87.677234,"statusValue":"In Service","statusKey":1,"availableBikes":6,"stAddress1":"Damen Ave & Augusta Blvd","stAddress2":"","city":"Chicago","postalCode":"","location":"","altitude":"","testStation":false,"lastCommunicationTime":null,"landMark":"142"},{"id":184,"stationName":"State St & 35th St","availableDocks":12,"totalDocks":19,"latitude":41.83104,"longitude":-87.62688,"statusValue":"In Service","statusKey":1,"availableBikes":7,"stAddress1":"State St & 35th St","stAddress2":"W. 35th St","city":"Chicago","postalCode":"","location":"","altitude":"","testStation":false,"lastCommunicationTime":null,"landMark":"082"},{"id":185,"stationName":"Stave St & Armitage Ave","availableDocks":3,"totalDocks":11,"latitude":41.917741,"longitude":-87.691392,"statusValue":"In Service","statusKey":1,"availableBikes":8,"stAddress1":"Stave St & Armitage Ave","stAddress2":"","city":"Chicago","postalCode":"","location":"","altitude":"","testStation":false,"lastCommunicationTime":null,"landMark":"266"},{"id":186,"stationName":"Ogden Ave & Race Ave","availableDocks":8,"totalDocks":15,"latitude":41.891795,"longitude":-87.658751,"statusValue":"In Service","statusKey":1,"availableBikes":7,"stAddress1":"Ogden Ave & Race Ave","stAddress2":"","city":"Chicago","postalCode":"","location":"","altitude":"","testStation":false,"lastCommunicationTime":null,"landMark":"194"},{"id":188,"stationName":"Greenview Ave & Fullerton Ave","availableDocks":6,"totalDocks":15,"latitude":41.92533,"longitude":-87.6658,"statusValue":"In Service","statusKey":1,"availableBikes":9,"stAddress1":"Greenview Ave & Fullerton Ave","stAddress2":"","city":"","postalCode":"","location":"","altitude":"","testStation":false,"lastCommunicationTime":null,"landMark":"295"},{"id":190,"stationName":"Southport Ave & Wrightwood Ave","availableDocks":10,"totalDocks":15,"latitude":41.92888,"longitude":-87.66317,"statusValue":"In Service","statusKey":1,"availableBikes":5,"stAddress1":"Southport Ave & Wrightwood Ave","stAddress2":"","city":"Chicago","postalCode":"","location":"","altitude":"","testStation":false,"lastCommunicationTime":null,"landMark":"298"},{"id":191,"stationName":"Canal St & Monroe St","availableDocks":7,"totalDocks":23,"latitude":41.8807,"longitude":-87.63947,"statusValue":"In Service","statusKey":1,"availableBikes":16,"stAddress1":"Canal St & Monroe St","stAddress2":"","city":"Chicago","postalCode":"","location":"","altitude":"","testStation":false,"lastCommunicationTime":null,"landMark":"056"},{"id":192,"stationName":"Canal St & Adams St","availableDocks":4,"totalDocks":27,"latitude":41.87923,"longitude":-87.640015,"statusValue":"In Service","statusKey":1,"availableBikes":23,"stAddress1":"Canal St & Adams St","stAddress2":"","city":"Chicago","postalCode":"","location":"","altitude":"","testStation":false,"lastCommunicationTime":null,"landMark":"011"},{"id":194,"stationName":"State St & Wacker Dr","availableDocks":8,"totalDocks":11,"latitude":41.887155,"longitude":-87.62775,"statusValue":"In Service","statusKey":1,"availableBikes":3,"stAddress1":"State St & Wacker Dr","stAddress2":"","city":"Chicago","postalCode":"","location":"","altitude":"","testStation":false,"lastCommunicationTime":null,"landMark":"339"},{"id":195,"stationName":"Columbus Dr & Randolph St","availableDocks":1,"totalDocks":23,"latitude":41.8853,"longitude":-87.62077,"statusValue":"In Service","statusKey":1,"availableBikes":22,"stAddress1":"Columbus Dr & Randolph St","stAddress2":"","city":"Chicago","postalCode":"","location":"","altitude":"","testStation":false,"lastCommunicationTime":null,"landMark":"263"},{"id":196,"stationName":"Cityfront Plaza & N Water St","availableDocks":5,"totalDocks":19,"latitude":41.889875,"longitude":-87.621994,"statusValue":"In Service","statusKey":1,"availableBikes":14,"stAddress1":"Cityfront Plaza & N Water St","stAddress2":"","city":"Chicago","postalCode":"","location":"","altitude":"","testStation":false,"lastCommunicationTime":null,"landMark":"427"},{"id":197,"stationName":"Wabash Ave & Madison St","availableDocks":12,"totalDocks":19,"latitude":41.882134,"longitude":-87.625125,"statusValue":"In Service","statusKey":1,"availableBikes":7,"stAddress1":"Wabash Ave & Madison St","stAddress2":"","city":"Chicago","postalCode":"","location":"","altitude":"","testStation":false,"lastCommunicationTime":null,"landMark":"036"},{"id":198,"stationName":"Halsted St & Madison St","availableDocks":2,"totalDocks":19,"latitude":41.88175,"longitude":-87.6478,"statusValue":"In Service","statusKey":1,"availableBikes":17,"stAddress1":"Halsted St & Madison St","stAddress2":"","city":"Chicago","postalCode":"","location":"","altitude":"","testStation":false,"lastCommunicationTime":null,"landMark":"159"},{"id":199,"stationName":"Wabash Ave & Grand Ave","availableDocks":6,"totalDocks":15,"latitude":41.891738,"longitude":-87.626937,"statusValue":"In Service","statusKey":1,"availableBikes":9,"stAddress1":"Wabash Ave & Grand Ave","stAddress2":"","city":"Chicago","postalCode":"","location":"","altitude":"","testStation":false,"lastCommunicationTime":null,"landMark":"004"},{"id":200,"stationName":"King Dr & 47th St","availableDocks":5,"totalDocks":11,"latitude":41.809851,"longitude":-87.616279,"statusValue":"In Service","statusKey":1,"availableBikes":6,"stAddress1":"King Dr & 47th St","stAddress2":"","city":"Chicago","postalCode":"","location":"","altitude":"","testStation":false,"lastCommunicationTime":null,"landMark":"090"},{"id":201,"stationName":"Indiana Ave & 40th St","availableDocks":8,"totalDocks":15,"latitude":41.82168,"longitude":-87.6216,"statusValue":"In Service","statusKey":1,"availableBikes":7,"stAddress1":"Indiana Ave & 40th St","stAddress2":"","city":"Chicago","postalCode":"","location":"","altitude":"","testStation":false,"lastCommunicationTime":null,"landMark":"083"},{"id":202,"stationName":"Halsted St & 18th St","availableDocks":8,"totalDocks":15,"latitude":41.857499,"longitude":-87.646277,"statusValue":"In Service","statusKey":1,"availableBikes":7,"stAddress1":"Halsted St & 18th St","stAddress2":"","city":"Chicago","postalCode":"","location":"","altitude":"","testStation":false,"lastCommunicationTime":null,"landMark":"099"},{"id":203,"stationName":"Western Ave & 21st St","availableDocks":9,"totalDocks":15,"latitude":41.85394,"longitude":-87.685243,"statusValue":"In Service","statusKey":1,"availableBikes":6,"stAddress1":"Western Ave & 21st St","stAddress2":"","city":"Chicago","postalCode":"","location":"","altitude":"","testStation":false,"lastCommunicationTime":null,"landMark":"091"},{"id":204,"stationName":"Prairie Ave & Garfield Blvd","availableDocks":7,"totalDocks":15,"latitude":41.7951,"longitude":-87.61936,"statusValue":"In Service","statusKey":1,"availableBikes":8,"stAddress1":"Prairie Ave & Garfield Blvd","stAddress2":"","city":"Chicago","postalCode":"","location":"","altitude":"","testStation":false,"lastCommunicationTime":null,"landMark":"101"},{"id":205,"stationName":"Paulina St & 18th St","availableDocks":11,"totalDocks":15,"latitude":41.857901,"longitude":-87.668745,"statusValue":"In Service","statusKey":1,"availableBikes":4,"stAddress1":"Paulina St & 18th St","stAddress2":"","city":"Chicago","postalCode":"","location":"","altitude":"","testStation":false,"lastCommunicationTime":null,"landMark":"088"},{"id":206,"stationName":"Halsted St & Archer Ave","availableDocks":8,"totalDocks":15,"latitude":41.847203,"longitude":-87.646795,"statusValue":"In Service","statusKey":1,"availableBikes":7,"stAddress1":"Halsted St & Archer Ave","stAddress2":"","city":"Chicago","postalCode":"","location":"","altitude":"","testStation":false,"lastCommunicationTime":null,"landMark":"098"},{"id":207,"stationName":"Emerald Ave & 28th St","availableDocks":7,"totalDocks":15,"latitude":41.84358,"longitude":-87.645368,"statusValue":"In Service","statusKey":1,"availableBikes":8,"stAddress1":"Emerald Ave & 28th St","stAddress2":"","city":"Chicago","postalCode":"","location":"","altitude":"","testStation":false,"lastCommunicationTime":null,"landMark":"399"},{"id":208,"stationName":"Ashland Ave & 21st St","availableDocks":12,"totalDocks":15,"latitude":41.85381,"longitude":-87.665897,"statusValue":"In Service","statusKey":1,"availableBikes":3,"stAddress1":"Ashland Ave & 21st St","stAddress2":"","city":"Chicago","postalCode":"","location":"","altitude":"","testStation":false,"lastCommunicationTime":null,"landMark":"307"},{"id":209,"stationName":"Normal Ave & Archer Ave","availableDocks":3,"totalDocks":11,"latitude":41.849527,"longitude":-87.640591,"statusValue":"In Service","statusKey":1,"availableBikes":8,"stAddress1":"Normal Ave & Archer Ave","stAddress2":"","city":"Chicago","postalCode":"","location":"","altitude":"","testStation":false,"lastCommunicationTime":null,"landMark":"308"},{"id":210,"stationName":"Ashland Ave & Division St","availableDocks":10,"totalDocks":19,"latitude":41.903456,"longitude":-87.66777,"statusValue":"In Service","statusKey":1,"availableBikes":9,"stAddress1":"Ashland Ave & Division St","stAddress2":"","city":"Chicago","postalCode":"","location":"","altitude":"","testStation":false,"lastCommunicationTime":null,"landMark":"061"},{"id":211,"stationName":"St Clair St & Erie St","availableDocks":3,"totalDocks":19,"latitude":41.894448,"longitude":-87.622663,"statusValue":"In Service","statusKey":1,"availableBikes":16,"stAddress1":"St Clair St & Erie St","stAddress2":"","city":"Chicago","postalCode":"","location":"","altitude":"","testStation":false,"lastCommunicationTime":null,"landMark":"016"},{"id":212,"stationName":"Wells St & Ohio St","availableDocks":9,"totalDocks":19,"latitude":41.892238,"longitude":-87.633985,"statusValue":"In Service","statusKey":1,"availableBikes":10,"stAddress1":"Wells St & Ohio St","stAddress2":"","city":"Chicago","postalCode":"","location":"","altitude":"","testStation":false,"lastCommunicationTime":null,"landMark":"264"},{"id":213,"stationName":"Leavitt St & North Ave","availableDocks":2,"totalDocks":11,"latitude":41.910652,"longitude":-87.6824,"statusValue":"In Service","statusKey":1,"availableBikes":9,"stAddress1":"Leavitt St & North Ave","stAddress2":"","city":"Chicago","postalCode":"","location":"","altitude":"","testStation":false,"lastCommunicationTime":null,"landMark":"244"},{"id":214,"stationName":"Damen Ave & Grand Ave","availableDocks":7,"totalDocks":15,"latitude":41.89122,"longitude":-87.67686,"statusValue":"In Service","statusKey":1,"availableBikes":8,"stAddress1":"Damen Ave & Grand Ave","stAddress2":"","city":"Chicago","postalCode":"","location":"","altitude":"","testStation":false,"lastCommunicationTime":null,"landMark":"141"},{"id":215,"stationName":"Madison St & Damen Ave","availableDocks":7,"totalDocks":15,"latitude":41.88137,"longitude":-87.67493,"statusValue":"In Service","statusKey":1,"availableBikes":8,"stAddress1":"Madison St & Damen Ave","stAddress2":"","city":"Chicago","postalCode":"","location":"","altitude":"","testStation":false,"lastCommunicationTime":null,"landMark":"134"},{"id":216,"stationName":"California Ave & Division St","availableDocks":8,"totalDocks":15,"latitude":41.903065,"longitude":-87.696531,"statusValue":"In Service","statusKey":1,"availableBikes":7,"stAddress1":"California Ave & Division St","stAddress2":"","city":"Chicago","postalCode":"","location":"","altitude":"","testStation":false,"lastCommunicationTime":null,"landMark":"256"},{"id":217,"stationName":"May St & Fulton St","availableDocks":9,"totalDocks":14,"latitude":41.886773,"longitude":-87.656001,"statusValue":"In Service","statusKey":1,"availableBikes":5,"stAddress1":"May St & Fulton St","stAddress2":"","city":"Chicago","postalCode":"","location":"","altitude":"","testStation":false,"lastCommunicationTime":null,"landMark":"197"}]}     
